{
  "coord": [
    {
      "longitude": 4.47578,
      "latitude": 51.92278,
      "city": "Rotterdam",
      "count": 53
    },
    {
      "longitude": 4.29916,
      "latitude": 52.07114,
      "city": "Den haag",
      "count": 20
    },
    {
      "longitude": 4.360402,
      "latitude": 52.005926,
      "city": "Delft",
      "count": 10
    },
    {
      "longitude": 4.448834,
      "latitude": 52.238521,
      "city": "Noordwijk",
      "count": 4
    },
    {
      "longitude": 4.671127,
      "latitude": 51.79957,
      "city": "Dordrecht",
      "count": 3
    },
    {
      "longitude": 4.658169,
      "latitude": 52.129542,
      "city": "Alphen aan",
      "count": 1
    },
    {
      "longitude": 4.438657,
      "latitude": 52.188928,
      "city": "Rijnsburg",
      "count": 1
    },
    {
      "longitude": 6.388105,
      "latitude": 51.841459,
      "city": "Mechelen",
      "count": 1
    },
    {
      "longitude": 4.843076,
      "latitude": 51.951148,
      "city": "Schoonhoven",
      "count": 1
    },
    {
      "longitude": 4.498955,
      "latitude": 52.158316,
      "city": "Leiden",
      "count": 8
    },
    {
      "longitude": 4.523228,
      "latitude": 51.858581,
      "city": "Barendrecht",
      "count": 2
    },
    {
      "longitude": 4.249371,
      "latitude": 51.922286,
      "city": "Maassluis",
      "count": 1
    },
    {
      "longitude": 4.329804,
      "latitude": 52.047613,
      "city": "Rijswijk",
      "count": 5
    },
    {
      "longitude": 4.658169,
      "latitude": 52.129542,
      "city": "Alphen aan den rijn",
      "count": 2
    },
    {
      "longitude": 4.491416,
      "latitude": 52.053725,
      "city": "Zoetermeer",
      "count": 4
    },
    {
      "longitude": 4.580515,
      "latitude": 51.953777,
      "city": "Capelle aan den ijssel",
      "count": 3
    },
    {
      "longitude": 4.477005,
      "latitude": 51.99221,
      "city": "Berkel en rodenrijs",
      "count": 1
    },
    {
      "longitude": 5.239863,
      "latitude": 51.823649,
      "city": "Tuil",
      "count": 2
    },
    {
      "longitude": 4.89973,
      "latitude": 52.37243,
      "city": "Amsterdam",
      "count": 163
    },
    {
      "longitude": 5.175092,
      "latitude": 52.22567,
      "city": "Hilversum",
      "count": 10
    },
    {
      "longitude": 4.173566,
      "latitude": 51.759511,
      "city": "Middelharnis",
      "count": 1
    },
    {
      "longitude": 4.52019,
      "latitude": 52.223194,
      "city": "Sassenheim",
      "count": 1
    },
    {
      "longitude": 4.410553,
      "latitude": 51.822803,
      "city": "Oud-beijerland",
      "count": 1
    },
    {
      "longitude": 4.702678,
      "latitude": 52.018523,
      "city": "Gouda",
      "count": 1
    },
    {
      "longitude": 4.557053,
      "latitude": 52.256454,
      "city": "Lisse",
      "count": 2
    },
    {
      "longitude": 4.730469,
      "latitude": 52.05065,
      "city": "Reeuwijk",
      "count": 1
    },
    {
      "longitude": 4.827389,
      "latitude": 51.837641,
      "city": "Hardinxveld-giessendam",
      "count": 1
    },
    {
      "longitude": 4.961511,
      "latitude": 51.955822,
      "city": "Ameide",
      "count": 1
    },
    {
      "longitude": 4.212448,
      "latitude": 51.692947,
      "city": "Oude-tonge",
      "count": 1
    },
    {
      "longitude": 5.11733,
      "latitude": 52.09153,
      "city": "Utrecht",
      "count": 35
    },
    {
      "longitude": 5.04411,
      "latitude": 52.019659,
      "city": "Ijsselstein",
      "count": 3
    },
    {
      "longitude": 5.389244,
      "latitude": 52.15664,
      "city": "Amersfoort",
      "count": 12
    },
    { "count": 1 },
    {
      "longitude": 5.428444,
      "latitude": 52.135797,
      "city": "Leusden",
      "count": 2
    },
    {
      "longitude": 5.234864,
      "latitude": 52.088768,
      "city": "Zeist",
      "count": 3
    },
    {
      "longitude": 5.211178,
      "latitude": 52.065274,
      "city": "Bunnik",
      "count": 1
    },
    {
      "longitude": 4.995113,
      "latitude": 52.172063,
      "city": "Breukelen",
      "count": 3
    },
    {
      "longitude": 4.88679,
      "latitude": 52.084543,
      "city": "Woerden",
      "count": 3
    },
    {
      "longitude": 5.550083,
      "latitude": 52.022338,
      "city": "Veenendaal",
      "count": 1
    },
    {
      "longitude": 5.214643,
      "latitude": 52.134585,
      "city": "Bilthoven",
      "count": 2
    },
    {
      "longitude": 5.269539,
      "latitude": 52.054122,
      "city": "Driebergen",
      "count": 3
    },
    {
      "longitude": 5.171657,
      "latitude": 52.029422,
      "city": "Houten",
      "count": 2
    },
    {
      "longitude": 5.088222,
      "latitude": 52.034536,
      "city": "Nieuwegein",
      "count": 1
    },
    {
      "longitude": 5.180051,
      "latitude": 52.110503,
      "city": "De bilt",
      "count": 1
    },
    {
      "longitude": 5.073786,
      "latitude": 51.682315,
      "city": "Waalwijk",
      "count": 3
    },
    {
      "longitude": 4.780567,
      "latitude": 51.592215,
      "city": "Breda",
      "count": 16
    },
    {
      "longitude": 5.478826,
      "latitude": 51.455555,
      "city": "Eindhoven",
      "count": 21
    },
    {
      "longitude": 4.438477,
      "latitude": 51.73227,
      "city": "Numansdorp",
      "count": 1
    },
    {
      "longitude": 6.509452,
      "latitude": 52.310011,
      "city": "Rijssen",
      "count": 1
    },
    {
      "longitude": 4.69264,
      "latitude": 51.832155,
      "city": "Papendrecht",
      "count": 1
    },
    {
      "longitude": 5.69251,
      "latitude": 50.850165,
      "city": "Maastricht",
      "count": 1
    },
    {
      "longitude": 6.881208,
      "latitude": 52.212261,
      "city": "Enschede",
      "count": 11
    },
    {
      "longitude": 6.986426,
      "latitude": 52.726875,
      "city": "Klazienaveen",
      "count": 1
    },
    {
      "longitude": 6.479063,
      "latitude": 52.723368,
      "city": "Hoogeveen",
      "count": 1
    },
    {
      "longitude": 5.162129,
      "latitude": 52.295578,
      "city": "Naarden",
      "count": 3
    },
    {
      "longitude": 5.481931,
      "latitude": 52.225443,
      "city": "Nijkerk",
      "count": 1
    },
    {
      "longitude": 6.562788,
      "latitude": 53.213331,
      "city": "Groningen",
      "count": 24
    },
    {
      "longitude": 5.319105,
      "latitude": 51.701539,
      "city": "Den bosch",
      "count": 5
    },
    {
      "longitude": 5.363806,
      "latitude": 51.715904,
      "city": "Rosmalen",
      "count": 2
    },
    {
      "longitude": 6.916864,
      "latitude": 52.773835,
      "city": "Emmen",
      "count": 4
    },
    {
      "longitude": 6.096312,
      "latitude": 52.516341,
      "city": "Zwolle",
      "count": 9
    },
    {
      "longitude": 5.034763,
      "latitude": 52.309675,
      "city": "Weesp",
      "count": 1
    },
    { "longitude": 5.662949, "latitude": 52.034675, "city": "Ede", "count": 1 },
    {
      "longitude": 4.763334,
      "latitude": 52.281945,
      "city": "Schiphol-rijk",
      "count": 1
    },
    {
      "longitude": 6.660562,
      "latitude": 52.351922,
      "city": "Almelo",
      "count": 1
    },
    {
      "longitude": 4.867536,
      "latitude": 52.207543,
      "city": "Mijdrecht",
      "count": 1
    },
    {
      "longitude": 4.865937,
      "latitude": 52.300552,
      "city": "Amstelveen",
      "count": 9
    },
    {
      "longitude": 5.979059,
      "latitude": 50.883447,
      "city": "Heerlen",
      "count": 3
    },
    {
      "longitude": 5.069207,
      "latitude": 52.499906,
      "city": "Volendam",
      "count": 1
    },
    { "longitude": 5.982135, "latitude": 52.348128, "city": "Epe", "count": 2 },
    {
      "longitude": 5.623089,
      "latitude": 52.301083,
      "city": "Ermelo",
      "count": 1
    },
    {
      "longitude": 5.786845,
      "latitude": 50.985132,
      "city": "Urmond",
      "count": 1
    },
    {
      "longitude": 4.955985,
      "latitude": 52.827683,
      "city": "Noord-holland",
      "count": 1
    },
    {
      "longitude": 4.663322,
      "latitude": 52.491334,
      "city": "Beverwijk",
      "count": 1
    },
    {
      "longitude": 4.363059,
      "latitude": 51.865397,
      "city": "Hoogvliet rotterdam",
      "count": 1
    },
    {
      "longitude": 4.912345,
      "latitude": 52.295031,
      "city": "Ouderkerk aan de amstel",
      "count": 1
    },
    {
      "longitude": 5.074477,
      "latitude": 51.564458,
      "city": "Tilburg",
      "count": 14
    },
    {
      "longitude": 5.840216,
      "latitude": 50.94022,
      "city": "Spaubeek",
      "count": 1
    },
    {
      "longitude": 4.668232,
      "latitude": 51.987978,
      "city": "Moordrecht",
      "count": 1
    },
    {
      "longitude": 6.563363,
      "latitude": 52.999718,
      "city": "Assen",
      "count": 1
    },
    { "count": 1 },
    {
      "longitude": 4.743524,
      "latitude": 52.633852,
      "city": "Alkmaar",
      "count": 12
    },
    {
      "longitude": 5.370083,
      "latitude": 52.243582,
      "city": "Bunschoten",
      "count": 1
    },
    { "count": 1 },
    {
      "longitude": 6.380188,
      "latitude": 53.161293,
      "city": "Leek",
      "count": 1
    },
    {
      "longitude": 5.847102,
      "latitude": 51.833609,
      "city": "Nijmegen",
      "count": 4
    },
    {
      "longitude": 5.915834,
      "latitude": 51.991032,
      "city": "Arnhem",
      "count": 6
    },
    {
      "longitude": 6.201494,
      "latitude": 52.142182,
      "city": "Zutphen",
      "count": 1
    },
    {
      "longitude": 6.461845,
      "latitude": 51.942006,
      "city": "Varsseveld",
      "count": 1
    },
    {
      "longitude": 6.293615,
      "latitude": 51.964727,
      "city": "Doetinchem",
      "count": 2
    },
    {
      "longitude": 5.634516,
      "latitude": 52.346753,
      "city": "Harderwijk",
      "count": 3
    },
    {
      "longitude": 5.958917,
      "latitude": 52.207918,
      "city": "Apeldoorn",
      "count": 2
    },
    {
      "longitude": 5.761255,
      "latitude": 51.859936,
      "city": "Beuningen ",
      "count": 1
    },
    {
      "longitude": 6.621055,
      "latitude": 52.040721,
      "city": "Groenlo",
      "count": 1
    },
    {
      "longitude": 5.785582,
      "latitude": 52.377409,
      "city": "Nunspeet",
      "count": 1
    },
    {
      "longitude": 5.245539,
      "latitude": 51.807868,
      "city": "Zaltbommel",
      "count": 1
    },
    {
      "longitude": 5.761255,
      "latitude": 51.859936,
      "city": "Beuningen",
      "count": 1
    },
    {
      "longitude": 5.977744,
      "latitude": 51.993743,
      "city": "Velp",
      "count": 1
    },
    {
      "longitude": 5.810014,
      "latitude": 53.200798,
      "city": "Leeuwarden",
      "count": 4
    },
    {
      "longitude": 5.660212,
      "latitude": 53.030026,
      "city": "Sneek",
      "count": 2
    },
    {
      "longitude": 5.92267,
      "latitude": 52.959035,
      "city": "Heerenveen",
      "count": 3
    },
    {
      "longitude": 6.090418,
      "latitude": 53.109442,
      "city": "Drachten",
      "count": 1
    },
    { "count": 1 },
    {
      "longitude": 5.575486,
      "latitude": 51.270669,
      "city": "Budel",
      "count": 1
    },
    {
      "longitude": 5.138991,
      "latitude": 51.735914,
      "city": "Heusden",
      "count": 1
    },
    {
      "longitude": 4.484273,
      "latitude": 51.903962,
      "city": "New york ",
      "count": 1
    },
    { "longitude": 5.533308, "latitude": 51.761427, "city": "Oss", "count": 1 },
    {
      "longitude": 5.673792,
      "latitude": 51.603449,
      "city": "Boekel",
      "count": 1
    },
    {
      "longitude": 5.05845,
      "latitude": 51.520987,
      "city": "Goirle",
      "count": 1
    },
    { "count": 1 },
    {
      "longitude": 5.670699,
      "latitude": 51.481034,
      "city": "Helmond",
      "count": 1
    },
    {
      "longitude": 4.856132,
      "latitude": 51.649594,
      "city": "Oosterhout",
      "count": 1
    },
    {
      "longitude": 5.443801,
      "latitude": 51.38803,
      "city": "Waalre",
      "count": 1
    },
    {
      "longitude": 5.799436,
      "latitude": 51.460229,
      "city": "Deurne",
      "count": 1
    },
    {
      "longitude": 4.96406,
      "latitude": 51.772214,
      "city": "Almkerk",
      "count": 1
    },
    {
      "longitude": 4.469845,
      "latitude": 51.531203,
      "city": "Roosendaal",
      "count": 1
    },
    {
      "longitude": 5.315775,
      "latitude": 51.589855,
      "city": "Boxtel",
      "count": 1
    },
    {
      "longitude": 4.920269,
      "latitude": 51.590165,
      "city": "Rijen",
      "count": 1
    },
    {
      "longitude": 3.888983,
      "latitude": 51.506112,
      "city": "Goes",
      "count": 1
    },
    {
      "longitude": 3.620149,
      "latitude": 51.494458,
      "city": "Middelburg",
      "count": 2
    },
    {
      "longitude": 4.048557,
      "latitude": 51.495616,
      "city": "Yerseke",
      "count": 1
    },
    {
      "longitude": 5.458384,
      "latitude": 52.511606,
      "city": "Lelystad",
      "count": 2
    },
    {
      "longitude": 5.248719,
      "latitude": 52.373491,
      "city": "Almere",
      "count": 5
    },
    {
      "longitude": 5.745545,
      "latitude": 51.284211,
      "city": "Nederweert",
      "count": 1
    },
    {
      "longitude": 5.792272,
      "latitude": 50.946121,
      "city": "Beek",
      "count": 1
    },
    {
      "longitude": 5.868884,
      "latitude": 51.001853,
      "city": "Sittard",
      "count": 1
    },
    {
      "longitude": 5.841547,
      "latitude": 51.163627,
      "city": "Thorn",
      "count": 1
    },
    { "longitude": 6.52778, "latitude": 53.13833, "city": "Horst", "count": 1 },
    {
      "longitude": 6.910928,
      "latitude": 52.308276,
      "city": "Oldenzaal",
      "count": 3
    },
    {
      "longitude": 6.169684,
      "latitude": 52.258528,
      "city": "Deventer",
      "count": 3
    },
    {
      "longitude": 6.751405,
      "latitude": 52.300687,
      "city": "Borne",
      "count": 1
    },
    {
      "longitude": 6.625854,
      "latitude": 52.570415,
      "city": "Hardenberg",
      "count": 1
    },
    {
      "longitude": 6.230781,
      "latitude": 52.440871,
      "city": "Heino",
      "count": 1
    },
    {
      "longitude": 4.902848,
      "latitude": 52.67421,
      "city": "Obdam",
      "count": 1
    },
    {
      "longitude": 4.669865,
      "latitude": 52.307842,
      "city": "Hoofddorp",
      "count": 3
    },
    {
      "longitude": 4.64272,
      "latitude": 52.379653,
      "city": "Haarlem",
      "count": 8
    },
    {
      "longitude": 4.972014,
      "latitude": 52.500821,
      "city": "Purmerend",
      "count": 2
    },
    {
      "longitude": 4.807345,
      "latitude": 52.495771,
      "city": "Wormer",
      "count": 3
    },
    {
      "longitude": 4.972269,
      "latitude": 52.342234,
      "city": "Diemen",
      "count": 1
    },
    { "count": 1 },
    {
      "longitude": 5.175092,
      "latitude": 52.22567,
      "city": "Hilversum ",
      "count": 1
    },
    {
      "longitude": 4.829437,
      "latitude": 52.443861,
      "city": "Zaandam",
      "count": 2
    },
    {
      "longitude": 4.748501,
      "latitude": 52.377383,
      "city": "Zwanenburg",
      "count": 1
    },
    {
      "longitude": 4.759844,
      "latitude": 52.302739,
      "city": "Schiphol",
      "count": 1
    },
    {
      "longitude": 4.971317,
      "latitude": 52.30771,
      "city": "Amsterdam-zuidoost",
      "count": 2
    },
    {
      "longitude": 4.627107,
      "latitude": 52.266234,
      "city": "Nieuw-vennep",
      "count": 1
    },
    {
      "longitude": 4.680469,
      "latitude": 52.511591,
      "city": "Heemskerk",
      "count": 1
    },
    {
      "longitude": 4.671366,
      "latitude": 52.552867,
      "city": "Castricum",
      "count": 1
    }
  ]
}
